{
  "sections":[
    {
      "name":"Festival Shuttles", 
      "key": "interactive",
      "routes": ["south", "north", "all", "shuttleinfo"]
    },
    {
      "name": "Hotel Shuttles", 
      "key": "film",
      "routes": [
        "hotelinfo",
        "hotelnw15",
        "hotelnw14",
        "hotelnw13",
        "hotelnw12",
        "hotelsouth11",
        "hotelsouth10",
        "hotelsouth9",
        "hoteleast8",
        "hoteleast7",
        "hoteleast6",
        "hotelcentral5",
        "hotelnorth4",
        "hotelnorth3",
        "hotelnorth2",
        "hotelnorth1"
      ]
    }
  ], 
  "shuttleStops": [
    {
      "key": "omni",
      "location": {
        "lat":30.269594,"lng":-97.739997
      },
      "name": "Omni Hotel",
      "image": "stops/AllRoutes_OmniStop.png"
    },
    {
      "key": "paramount",
      "location": {
        "lat":30.268000,"lng":-97.744889
      },
      "name": "Paramount/Stateside",
      "image": "stops/AllRoutes_ParamountStatesideStop.png"
    },
    {
      "key": "intercontinental",
      "location": {
        "lat":30.267222,"lng":-97.740512
      },
      "name": "Intercontinental Stephen F. Austin/Driskill Stop",
      "image": "stops/AllRoutes_InterContinentalStephenFAustinDriskillStop.png"
    },
    {
      "key": "marriottout",
      "location": {
        "lat":30.264961,"lng":-97.740941
      },
      "name": "JW Marriott Outbound Stop",
      "image": "stops/AllRoutes_JWMarriottOutboundStop.png"
    },
    {
      "key": "marriottin",
      "location": {
        "lat":30.265294,"lng":-97.746563
      },
      "name": "JW Marriott Inbound Stop",
      "image": "stops/AllRoutes_JWMarriottInboundStop.png"
    },
    {
      "key": "acc",
      "location": {
        "lat":30.262811,"lng":-97.743216
      },
      "name": "Austin Convention Center Stop",
      "image": "stops/AllRoutes_AustinConventionCenterStop.png"
    },
    {
      "key": "palmerout",
      "location": {
        "lat":30.261069,"lng":-97.749352
      },
      "name": "Palmer/Long Center Outbound Stop",
      "image": "stops/AllRoutes_PalmerLongCenterOutboundStop.png"
    },
    {
      "key": "palmerin",
      "location": {
        "lat":30.260735,"lng":-97.754073
      },
      "name": "Palmer/Long Center Inbound Stop",
      "image": "stops/AllRoutes_PalmerLongCenterInboundStop.png"
    },
    {
      "key": "hyattin",
      "location": {
        "lat":30.259364,"lng":-97.750597
      },
      "name": "Hyatt Inbound Stop",
      "image": "stops/AllRoutes_HyattInboundStop.png"
    },
    {
      "key": "hyattout",
      "location": {
        "lat":30.258771,"lng":-97.744975
      },
      "name": "Hyatt Outbound Stop",
      "image": "stops/AllRoutes_HyattOutboundStop.png"
    },
    {
      "key": "topfer",
      "location": {
        "lat":30.263997,"lng":-97.759609
      },
      "name": "Topfer Theatre Stop",
      "image": "stops/AllRoutes_TopferTheatreStop.png"
    },
    {
      "key": "alamo",
      "location": {
        "lat":30.255768,"lng":-97.761326
      },
      "name": "Alamo Drafthouse Stop",
      "image": "stops/AllRoutes_AlamoDrafthouseStop.png"
    },


    {
      "key": "north1",
      "location": {
        "lat":30.322471,"lng":-97.704377
      },
      "name": "North 1",
      "image": "stops/NorthRoute1.png"
    },
    {
      "key": "north2",
      "location": {
        "lat":30.316877,"lng":-97.707596
      },
      "name": "North 2",
      "image": "stops/NorthRoute2.png"
    },
    {
      "key": "north3",
      "location": {
        "lat":30.325360,"lng":-97.709999
      },
      "name": "North 4",
      "image": "stops/NorthRoute3.png"
    },
    {
      "key": "north4",
      "location": {
        "lat":30.334287,"lng":-97.703261
      },
      "name": "North 4",
      "image": "stops/NorthRoute4.png"
    },
    {
      "key": "central51",
      "location": {
        "lat":30.279045,"lng":-97.741756
      },
      "name": "Central 5",
      "image": "stops/CentralRoute5-1.png"
    },
    {
      "key": "central52",
      "location": {
        "lat":30.282714,"lng":-97.721844
      },
      "name": "Central 5",
      "image": "stops/CentralRoute5-2.png"
    },
    {
      "key": "east6",
      "location": {
        "lat":30.214130,"lng":-97.695408
      },
      "name": "East 6",
      "image": "stops/EastRoute6.png"
    },
    {
      "key": "east7",
      "location": {
        "lat":30.219322,"lng":-97.686009
      },
      "name": "East 7",
      "image": "stops/EastRoute7.png"
    },
    {
      "key": "east8",
      "location": {
        "lat":30.210347,"lng":-97.668972
      },
      "name": "East 8",
      "image": "stops/EastRoute8.png"
    },
    {
      "key": "south91",
      "location": {
        "lat":30.252654,"lng":-97.737207
      },
      "name": "South 9",
      "image": "stops/SouthRoute9-1.png"
    },
    {
      "key": "south92",
      "location": {
        "lat":30.232931,"lng":-97.741714
      },
      "name": "South 9",
      "image": "stops/SouthRoute9-2.png"
    },
    {
      "key": "south10",
      "location": {
        "lat":30.213982,"lng":-97.748537
      },
      "name": "South 10",
      "image": "stops/SouthRoute10.png"
    },
    {
      "key": "south11",
      "location": {
        "lat":30.211719,"lng":-97.745919
      },
      "name": "South 11",
      "image": "stops/SouthRoute11.png"
    },
    {
      "key": "nw12",
      "location": {
        "lat":30.398752,"lng":-97.720728
      },
      "name": "Northwest 12",
      "image": "stops/NorthwestRoute12.png"
    },
    {
      "key": "nw13",
      "location": {
        "lat":30.397198,"lng":-97.735877
      },
      "name": "Northwest 13",
      "image": "stops/NorthwestRoute13.png"
    },
    {
      "key": "nw141",
      "location": {
        "lat":30.398012,"lng":-97.742958
      },
      "name": "Northwest 14",
      "image": "stops/NorthwestRoute14-1.png"
    },
    {
      "key": "nw142",
      "location": {
        "lat":30.388054,"lng":-97.743387
      },
      "name": "Northwest 14",
      "image": "stops/NorthwestRoute14-2.png"
    },
    {
      "key": "nw15",
      "location": {
        "lat":30.384982,"lng":-97.735233
      },
      "name": "Northwest 15",
      "image": "stops/NorthwestRoute15.png"
    }

  ],
  "shuttleRoutes":[
    {
      "key": "shuttleinfo",
      "name": "Shuttle Info (on sxsw.com)",
      "url": "http://sxsw.com/shuttles",
      "type": "static"
    },
    {
      "key": "all",
      "name": "All Shuttles",
      "locationKey": "all",
      "image": "routes/AllRoutes_AllRoutes.png",
      "startDate": "2014-03-06",
      "endDate": "2014-03-16",
      "startTime": "08:00",
      "endTime": "19:00",
      "mapCenter": {
        "lat":30.262477,"lng":-97.750854
      },
      "overlayBounds": {
        "sw": {
          "lat":30.254841,
          "lng":-97.763686
        },
        "ne": {
          "lat":30.269928,
          "lng":-97.740254 
        }
      },
      "stops": [
        "omni",
        "paramount",
        "intercontinental",
        "marriottout",
        "marriottin",
        "acc",
        "palmerin",
        "palmerout",
        "hyattin",
        "hyattout",
        "topfer",
        "alamo"
      ],
      "shuttles": [
        "867844000384928",
        "867844000477961",
        "867844000382245",
        "867844000380025",
        "867844000469349",
        "867844000379324",
        "867844000383698",
        "867844000377625",
        "867844000382419",
        "867844001545972",
        "867844000584006",
        "867844001547333",
        "867844001335218",
        "351564053157152",
        "351564053157475"
      ]
    },
    {
      "key": "south",
      "name": "South",
      "image": "routes/SouthRoute_Route.png",
      "markerIcon": "hyatt_busasset_163ppi-01.png",
      "locationKey": "hyatt", 
      "startDate": "2013-03-08",
      "endDate": "2013-03-11",
      "startTime": "08:00",
      "endTime": "19:00",
      "mapCenter": {
        "lat":30.260809,"lng":-97.752528
      },
      "overlayBounds": {
        "sw": {
          "lat":30.254841,
          "lng":-97.763686
        },
        "ne": {
          "lat":30.267815,"lng":-97.740297
        }
      },
      "stops": [
        "marriottout",
        "marriottin",
        "acc",
        "palmerin",
        "palmerout",
        "hyattin",
        "hyattout",
        "topfer",
        "alamo"
      ],
      "shuttles": [
        "867844000377625",
        "867844000382419",
        "867844001545972",
        "867844000584006",
        "867844001547333",
        "867844001335218",
        "351564053157152",
        "351564053157475"
      ]
    },
    {
      "key": "north",
      "name": "North",
      "image": "routes/NorthRoute_Route.png",
      "markerIcon": "sheraton_busasset_163ppi-01.png",
      "locationKey": "sheraton",
      "startDate": "2013-03-08",
      "endDate": "2013-03-11",
      "startTime": "08:00",
      "endTime": "19:00",
      "mapCenter": {
        "lat":30.266110,
        "lng":-97.739654
      },
      "overlayBounds": {
        "sw": {
          "lat":30.262292,"lng":-97.744718
        },
        "ne": {
          "lat":30.269928,
          "lng":-97.740254 
        }
      },
      "stops": [
        "marriottout",
        "marriottin",
        "acc",
        "omni",
        "paramount",
        "intercontinental"
      ],
      "shuttles": [
        "867844000384928",
        "867844000477961",
        "867844000382245",
        "867844000380025",
        "867844000469349",
        "867844000379324",
        "867844000383698"
      ]
    },
    {
      "key": "hotelinfo",
      "name": "Schedule Info (on sxsw.com)",
      "type": "static",
      "url": "http://sxsw.com/attend/hotels/shuttles"
    },
    {
      "key": "hotelnorth1",
      "name": "North 1",
      "image": "transparent-map-icon.png",
      "markerIcon": "sheraton_busasset_163ppi-01.png",
      "locationKey": "sheraton",
      "startDate": "2013-03-08",
      "endDate": "2013-03-11",
      "startTime": "08:00",
      "endTime": "19:00",
      "mapCenter": {
        "lat":30.322026,"lng":-97.706351
      },
      "overlayBounds": {
        "sw": {
          "lat":30.262292,"lng":-97.744718
        },
        "ne": {
          "lat":30.269928,
          "lng":-97.740254 
        }
      },
      "stops": [
        "north1"
      ],
      "shuttles": [
        "867844001091902",
        "867844001092975",
        "867844001092009",
        "867844001546624"
      ]
    },
    {
      "key": "hotelnorth2",
      "name": "North 2",
      "image": "transparent-map-icon.png",
      "markerIcon": "sheraton_busasset_163ppi-01.png",
      "locationKey": "sheraton",
      "startDate": "2013-03-08",
      "endDate": "2013-03-11",
      "startTime": "08:00",
      "endTime": "19:00",
      "mapCenter": {
        "lat":30.321619,"lng":-97.708282
      },
      "overlayBounds": {
        "sw": {
          "lat":30.262292,"lng":-97.744718
        },
        "ne": {
          "lat":30.269928,
          "lng":-97.740254 
        }
      },
      "stops": [
        "north2"
      ],
      "shuttles": [
        "867844001091969",
        "867844001091548",
        "867844001093106"
      ]
    },
    {
      "key": "hotelnorth3",
      "name": "North 3",
      "image": "transparent-map-icon.png",
      "markerIcon": "sheraton_busasset_163ppi-01.png",
      "locationKey": "sheraton",
      "startDate": "2013-03-08",
      "endDate": "2013-03-11",
      "startTime": "08:00",
      "endTime": "19:00",
      "mapCenter": {
        "lat":30.323841,"lng":-97.713346
      },
      "overlayBounds": {
        "sw": {
          "lat":30.262292,"lng":-97.744718
        },
        "ne": {
          "lat":30.269928,
          "lng":-97.740254 
        }
      },
      "stops": [
        "north3"
      ],
      "shuttles": [
        "867844001546939",
        "867844001546673",
        "351564053157558"
      ]
    },
    {
      "key": "hotelnorth4",
      "name": "North 4",
      "image": "transparent-map-icon.png",
      "markerIcon": "sheraton_busasset_163ppi-01.png",
      "locationKey": "sheraton",
      "startDate": "2013-03-08",
      "endDate": "2013-03-11",
      "startTime": "08:00",
      "endTime": "19:00",
      "mapCenter": {
        "lat":30.337250,"lng":-97.701631
      },
      "overlayBounds": {
        "sw": {
          "lat":30.262292,"lng":-97.744718
        },
        "ne": {
          "lat":30.269928,
          "lng":-97.740254 
        }
      },
      "stops": [
        "north4"
      ],
      "shuttles": [
        "867844001091795",
        "867844001546855",
        "351564053165619"
      ]
    },
    {
      "key": "hotelcentral5",
      "name": "Central 5",
      "image": "transparent-map-icon.png",
      "markerIcon": "sheraton_busasset_163ppi-01.png",
      "locationKey": "sheraton",
      "startDate": "2013-03-08",
      "endDate": "2013-03-11",
      "startTime": "08:00",
      "endTime": "19:00",
      "mapCenter": {
        "lat":30.281676,"lng":-97.739310
      },
      "overlayBounds": {
        "sw": {
          "lat":30.262292,"lng":-97.744718
        },
        "ne": {
          "lat":30.269928,
          "lng":-97.740254 
        }
      },
      "stops": [
        "central51",
        "central52"
      ],
      "shuttles": [
        "867844001092645",
        "867844001093148"
      ]
    },
    {
      "key": "hoteleast6",
      "name": "East 6",
      "image": "transparent-map-icon.png",
      "markerIcon": "sheraton_busasset_163ppi-01.png",
      "locationKey": "sheraton",
      "startDate": "2013-03-08",
      "endDate": "2013-03-11",
      "startTime": "08:00",
      "endTime": "19:00",
      "mapCenter": {
        "lat":30.214130,"lng":-97.695408
      },
      "overlayBounds": {
        "sw": {
          "lat":30.262292,"lng":-97.744718
        },
        "ne": {
          "lat":30.269928,
          "lng":-97.740254 
        }
      },
      "stops": [
        "east6"
      ],
      "shuttles": [
        "867844001334435",
        "867844001092322",
        "351564053167094"
      ]
    },
    {
      "key": "hoteleast7",
      "name": "East 7",
      "image": "transparent-map-icon.png",
      "markerIcon": "sheraton_busasset_163ppi-01.png",
      "locationKey": "sheraton",
      "startDate": "2013-03-08",
      "endDate": "2013-03-11",
      "startTime": "08:00",
      "endTime": "19:00",
      "mapCenter": {
        "lat":30.220954,"lng":-97.685966
      },
      "overlayBounds": {
        "sw": {
          "lat":30.262292,"lng":-97.744718
        },
        "ne": {
          "lat":30.269928,
          "lng":-97.740254 
        }
      },
      "stops": [
        "east7"
      ],
      "shuttles": [
        "867844001092066",
        "867844001093189"
      ]
    },
    {
      "key": "hoteleast8",
      "name": "East 8",
      "image": "transparent-map-icon.png",
      "markerIcon": "sheraton_busasset_163ppi-01.png",
      "locationKey": "sheraton",
      "startDate": "2013-03-08",
      "endDate": "2013-03-11",
      "startTime": "08:00",
      "endTime": "19:00",
      "mapCenter": {
        "lat":30.212239,"lng":-97.660861
      },
      "overlayBounds": {
        "sw": {
          "lat":30.262292,"lng":-97.744718
        },
        "ne": {
          "lat":30.269928,
          "lng":-97.740254 
        }
      },
      "stops": [
        "east8"
      ],
      "shuttles": [
        "867844001091787",
        "867844001093692",
        "351564053165684"
      ]
    },
    {
      "key": "hotelsouth9",
      "name": "South 9",
      "image": "transparent-map-icon.png",
      "markerIcon": "sheraton_busasset_163ppi-01.png",
      "locationKey": "sheraton",
      "startDate": "2013-03-08",
      "endDate": "2013-03-11",
      "startTime": "08:00",
      "endTime": "19:00",
      "mapCenter": {
        "lat":30.243015,"lng":-97.739825
      },
      "overlayBounds": {
        "sw": {
          "lat":30.262292,"lng":-97.744718
        },
        "ne": {
          "lat":30.269928,
          "lng":-97.740254 
        }
      },
      "stops": [
        "south91",
        "south92"
      ],
      "shuttles": [
        "867844001093825",
        "867844001091472",
        "867844001547283"
      ]
    },
    {
      "key": "hotelsouth10",
      "name": "South 10",
      "image": "transparent-map-icon.png",
      "markerIcon": "sheraton_busasset_163ppi-01.png",
      "locationKey": "sheraton",
      "startDate": "2013-03-08",
      "endDate": "2013-03-11",
      "startTime": "08:00",
      "endTime": "19:00",
      "mapCenter": {
        "lat":30.216615,"lng":-97.744117
      },
      "overlayBounds": {
        "sw": {
          "lat":30.262292,"lng":-97.744718
        },
        "ne": {
          "lat":30.269928,
          "lng":-97.740254 
        }
      },
      "stops": [
        "south10"
      ],
      "shuttles": [
        "867844001092363",
        "867844001545980",           
        "351564053157160"
      ]
    },
    {
      "key": "hotelsouth11",
      "name": "South 11",
      "image": "transparent-map-icon.png",
      "markerIcon": "sheraton_busasset_163ppi-01.png",
      "locationKey": "sheraton",
      "startDate": "2013-03-08",
      "endDate": "2013-03-11",
      "startTime": "08:00",
      "endTime": "19:00",
      "mapCenter": {
        "lat":30.213277,"lng":-97.745576
      },
      "overlayBounds": {
        "sw": {
          "lat":30.262292,"lng":-97.744718
        },
        "ne": {
          "lat":30.269928,
          "lng":-97.740254 
        }
      },
      "stops": [
        "south11"
      ],
      "shuttles": [
        "867844001093841",
        "867844001091894",
        "351564053157426"
      ]
    },
    {
      "key": "hotelnw12",
      "name": "Northwest 12",
      "image": "transparent-map-icon.png",
      "markerIcon": "sheraton_busasset_163ppi-01.png",
      "locationKey": "sheraton",
      "startDate": "2013-03-08",
      "endDate": "2013-03-11",
      "startTime": "08:00",
      "endTime": "19:00",
      "mapCenter": {
        "lat":30.398752,"lng":-97.720728
      },
      "overlayBounds": {
        "sw": {
          "lat":30.262292,"lng":-97.744718
        },
        "ne": {
          "lat":30.269928,
          "lng":-97.740254 
        }
      },
      "stops": [
        "nw12"
      ],
      "shuttles": [
        "867844001092835",
        "867844001335010",
        "867844001694309"
      ]
    },
    {
      "key": "hotelnw13",
      "name": "Northwest 13",
      "image": "transparent-map-icon.png",
      "markerIcon": "sheraton_busasset_163ppi-01.png",
      "locationKey": "sheraton",
      "startDate": "2013-03-08",
      "endDate": "2013-03-11",
      "startTime": "08:00",
      "endTime": "19:00",
      "mapCenter": {
        "lat":30.397198,"lng":-97.735877
      },
      "overlayBounds": {
        "sw": {
          "lat":30.262292,"lng":-97.744718
        },
        "ne": {
          "lat":30.269928,
          "lng":-97.740254 
        }
      },
      "stops": [
        "nw13"
      ],
      "shuttles": [
        "867844001093676",
        "867844001092264",
        "867844001093221"
      ]
    },
    {
      "key": "hotelnw14",
      "name": "Northwest 14",
      "image": "transparent-map-icon.png",
      "markerIcon": "sheraton_busasset_163ppi-01.png",
      "locationKey": "sheraton",
      "startDate": "2013-03-08",
      "endDate": "2013-03-11",
      "startTime": "08:00",
      "endTime": "19:00",
      "mapCenter": {
        "lat":30.399382,"lng":-97.745061
      },
      "overlayBounds": {
        "sw": {
          "lat":30.262292,"lng":-97.744718
        },
        "ne": {
          "lat":30.269928,
          "lng":-97.740254 
        }
      },
      "stops": [
        "nw141",
        "nw142"
      ],
      "shuttles": [
        "867844001092371",
        "867844001092918",
        "867844001679045"
      ]
    },
    {
      "key": "hotelnw15",
      "name": "Northwest 15",
      "image": "transparent-map-icon.png",
      "markerIcon": "sheraton_busasset_163ppi-01.png",
      "locationKey": "sheraton",
      "startDate": "2013-03-08",
      "endDate": "2013-03-11",
      "startTime": "08:00",
      "endTime": "19:00",
      "mapCenter": {
        "lat":30.388684,"lng":-97.734761
      },
      "overlayBounds": {
        "sw": {
          "lat":30.262292,"lng":-97.744718
        },
        "ne": {
          "lat":30.269928,
          "lng":-97.740254 
        }
      },
      "stops": [
        "nw15"
      ],
      "shuttles": [
        "867844001091670",
        "867844001091183",
        "867844001681017"
      ]
    }
  ]
}    